latitude,longitude,location_name
7.7322,8.5391,Makurdi Town Center
7.7305,8.5501,Benue State University
7.7250,8.5310,Wurukum Market
7.7375,8.5570,Federal Medical Center
7.7400,8.5250,Aper Aku Stadium
